{
  "type": "FeatureCollection",
  "features": [
    {
      "type": "Feature",
      "properties": {
        "name": "Ada"
      },
      "geometry": {
        "type": "Point",
        "coordinates": [
          18.6845966,
          45.404743
        ]
      }
    },
    {
      "type": "Feature",
      "properties": {
        "name": "Adamovec"
      },
      "geometry": {
        "type": "Point",
        "coordinates": [
          16.1641044,
          45.9047168
        ]
      }
    },
    {
      "type": "Feature",
      "properties": {
        "name": "Adžamovci"
      },
      "geometry": {
        "type": "Point",
        "coordinates": [
          17.461933,
          45.2513093
        ]
      }
    },
    {
      "type": "Feature",
      "properties": {
        "name": "Alaginci"
      },
      "geometry": {
        "type": "Point",
        "coordinates": [
          17.6987007,
          45.3614368
        ]
      }
    },
    {
      "type": "Feature",
      "properties": {
        "name": "Alan"
      },
      "geometry": {
        "type": "Point",
        "coordinates": [
          14.9313633,
          45.0737508
        ]
      }
    },
    {
      "type": "Feature",
      "properties": {
        "name": "Aleksinica"
      },
      "geometry": {
        "type": "Point",
        "coordinates": [
          15.2476155,
          44.640317
        ]
      }
    },
    {
      "type": "Feature",
      "properties": {
        "name": "Alilovci"
      },
      "geometry": {
        "type": "Point",
        "coordinates": [
          17.7025596,
          45.3955879
        ]
      }
    },
    {
      "type": "Feature",
      "properties": {
        "name": "Aljmaš"
      },
      "geometry": {
        "type": "Point",
        "coordinates": [
          18.9497635,
          45.529784
        ]
      }
    },
    {
      "type": "Feature",
      "properties": {
        "name": "Amatovci"
      },
      "geometry": {
        "type": "Point",
        "coordinates": [
          17.5070254,
          45.4532741
        ]
      }
    },
    {
      "type": "Feature",
      "properties": {
        "name": "Andigola"
      },
      "geometry": {
        "type": "Point",
        "coordinates": [
          16.6238232,
          45.6712032
        ]
      }
    },
    {
      "type": "Feature",
      "properties": {
        "name": "Andraševec"
      },
      "geometry": {
        "type": "Point",
        "coordinates": [
          15.9356094,
          46.0003464
        ]
      }
    },
    {
      "type": "Feature",
      "properties": {
        "name": "Andrijaševci"
      },
      "geometry": {
        "type": "Point",
        "coordinates": [
          18.7370195,
          45.224098
        ]
      }
    },
    {
      "type": "Feature",
      "properties": {
        "name": "Andrijevac"
      },
      "geometry": {
        "type": "Point",
        "coordinates": [
          18.2681919,
          45.5106303
        ]
      }
    },
    {
      "type": "Feature",
      "properties": {
        "name": "Andrilovec"
      },
      "geometry": {
        "type": "Point",
        "coordinates": [
          16.2927879,
          45.8044692
        ]
      }
    },
    {
      "type": "Feature",
      "properties": {
        "name": "Antenal"
      },
      "geometry": {
        "type": "Point",
        "coordinates": [
          13.5904225,
          45.3157803
        ]
      }
    },
    {
      "type": "Feature",
      "properties": {
        "name": "Antin"
      },
      "geometry": {
        "type": "Point",
        "coordinates": [
          18.7514662,
          45.3795948
        ]
      }
    },
    {
      "type": "Feature",
      "properties": {
        "name": "Antolovec"
      },
      "geometry": {
        "type": "Point",
        "coordinates": [
          16.7752066,
          46.2667185
        ]
      }
    },
    {
      "type": "Feature",
      "properties": {
        "name": "Antonci"
      },
      "geometry": {
        "type": "Point",
        "coordinates": [
          13.7879886,
          45.3667685
        ]
      }
    },
    {
      "type": "Feature",
      "properties": {
        "name": "Antonci"
      },
      "geometry": {
        "type": "Point",
        "coordinates": [
          13.6440433,
          45.2392607
        ]
      }
    },
    {
      "type": "Feature",
      "properties": {
        "name": "Antunovac"
      },
      "geometry": {
        "type": "Point",
        "coordinates": [
          18.6732169,
          45.4873442
        ]
      }
    },
    {
      "type": "Feature",
      "properties": {
        "name": "Antunovac"
      },
      "geometry": {
        "type": "Point",
        "coordinates": [
          17.0012394,
          45.5012882
        ]
      }
    },
    {
      "type": "Feature",
      "properties": {
        "name": "Antunovac"
      },
      "geometry": {
        "type": "Point",
        "coordinates": [
          18.6732169,
          45.4873442
        ]
      }
    },
    {
      "type": "Feature",
      "properties": {
        "name": "Anžići"
      },
      "geometry": {
        "type": "Point",
        "coordinates": [
          13.773732,
          45.2568076
        ]
      }
    },
    {
      "type": "Feature",
      "properties": {
        "name": "Apatija"
      },
      "geometry": {
        "type": "Point",
        "coordinates": [
          16.6692855,
          46.2532028
        ]
      }
    },
    {
      "type": "Feature",
      "properties": {
        "name": "Apatovec"
      },
      "geometry": {
        "type": "Point",
        "coordinates": [
          16.5737218,
          46.1482604
        ]
      }
    },
    {
      "type": "Feature",
      "properties": {
        "name": "Apševci"
      },
      "geometry": {
        "type": "Point",
        "coordinates": [
          19.0732932,
          45.0723148
        ]
      }
    },
    {
      "type": "Feature",
      "properties": {
        "name": "Arapovac"
      },
      "geometry": {
        "type": "Point",
        "coordinates": [
          15.6604173,
          45.0988131
        ]
      }
    },
    {
      "type": "Feature",
      "properties": {
        "name": "Arbanija"
      },
      "geometry": {
        "type": "Point",
        "coordinates": [
          16.3016943,
          43.5127714
        ]
      }
    },
    {
      "type": "Feature",
      "properties": {
        "name": "Aržano"
      },
      "geometry": {
        "type": "Point",
        "coordinates": [
          16.9985503,
          43.5799629
        ]
      }
    },
    {
      "type": "Feature",
      "properties": {
        "name": "Ašikovci"
      },
      "geometry": {
        "type": "Point",
        "coordinates": [
          17.834312,
          45.3247314
        ]
      }
    },
    {
      "type": "Feature",
      "properties": {
        "name": "Auguštanovec"
      },
      "geometry": {
        "type": "Point",
        "coordinates": [
          15.9383109,
          45.4748574
        ]
      }
    },
    {
      "type": "Feature",
      "properties": {
        "name": "Babići"
      },
      "geometry": {
        "type": "Point",
        "coordinates": [
          13.6940055,
          45.3088926
        ]
      }
    },
    {
      "type": "Feature",
      "properties": {
        "name": "Babići"
      },
      "geometry": {
        "type": "Point",
        "coordinates": [
          13.5578166,
          45.3911519
        ]
      }
    },
    {
      "type": "Feature",
      "properties": {
        "name": "Babina Greda"
      },
      "geometry": {
        "type": "Point",
        "coordinates": [
          18.5590857,
          45.1110472
        ]
      }
    },
    {
      "type": "Feature",
      "properties": {
        "name": "Babina Rijeka"
      },
      "geometry": {
        "type": "Point",
        "coordinates": [
          16.4488973,
          45.2577103
        ]
      }
    },
    {
      "type": "Feature",
      "properties": {
        "name": "Babinac"
      },
      "geometry": {
        "type": "Point",
        "coordinates": [
          16.6203617,
          45.2016478
        ]
      }
    },
    {
      "type": "Feature",
      "properties": {
        "name": "Babinac"
      },
      "geometry": {
        "type": "Point",
        "coordinates": [
          17.0438967,
          45.828993
        ]
      }
    },
    {
      "type": "Feature",
      "properties": {
        "name": "Babindub"
      },
      "geometry": {
        "type": "Point",
        "coordinates": [
          15.3146966,
          44.0930017
        ]
      }
    },
    {
      "type": "Feature",
      "properties": {
        "name": "Babine Kuće"
      },
      "geometry": {
        "type": "Point",
        "coordinates": [
          17.3608171,
          42.7792035
        ]
      }
    },
    {
      "type": "Feature",
      "properties": {
        "name": "Babinec"
      },
      "geometry": {
        "type": "Point",
        "coordinates": [
          16.109442,
          46.3718386
        ]
      }
    },
    {
      "type": "Feature",
      "properties": {
        "name": "Babino Polje"
      },
      "geometry": {
        "type": "Point",
        "coordinates": [
          17.5505231,
          42.7352783
        ]
      }
    },
    {
      "type": "Feature",
      "properties": {
        "name": "Babotok"
      },
      "geometry": {
        "type": "Point",
        "coordinates": [
          16.8896633,
          46.0152808
        ]
      }
    },
    {
      "type": "Feature",
      "properties": {
        "name": "Bačevac"
      },
      "geometry": {
        "type": "Point",
        "coordinates": [
          17.4792541,
          45.8612048
        ]
      }
    },
    {
      "type": "Feature",
      "properties": {
        "name": "Bačkovica"
      },
      "geometry": {
        "type": "Point",
        "coordinates": [
          17.1039352,
          45.8440325
        ]
      }
    },
    {
      "type": "Feature",
      "properties": {
        "name": "Bačva"
      },
      "geometry": {
        "type": "Point",
        "coordinates": [
          13.7149314,
          45.2516397
        ]
      }
    },
    {
      "type": "Feature",
      "properties": {
        "name": "Baćin Dol"
      },
      "geometry": {
        "type": "Point",
        "coordinates": [
          17.4306097,
          45.3055152
        ]
      }
    },
    {
      "type": "Feature",
      "properties": {
        "name": "Baćin"
      },
      "geometry": {
        "type": "Point",
        "coordinates": [
          16.7534053,
          45.204284
        ]
      }
    },
    {
      "type": "Feature",
      "properties": {
        "name": "Baćina"
      },
      "geometry": {
        "type": "Point",
        "coordinates": [
          17.4272137,
          43.0673801
        ]
      }
    },
    {
      "type": "Feature",
      "properties": {
        "name": "Badanj"
      },
      "geometry": {
        "type": "Point",
        "coordinates": [
          16.1798292,
          43.8649569
        ]
      }
    },
    {
      "type": "Feature",
      "properties": {
        "name": "Baderna"
      },
      "geometry": {
        "type": "Point",
        "coordinates": [
          13.7480201,
          45.2124555
        ]
      }
    },
    {
      "type": "Feature",
      "properties": {
        "name": "Badličan"
      },
      "geometry": {
        "type": "Point",
        "coordinates": [
          16.2804007,
          46.4235269
        ]
      }
    },
    {
      "type": "Feature",
      "properties": {
        "name": "Badljevina"
      },
      "geometry": {
        "type": "Point",
        "coordinates": [
          17.1923787,
          45.5144253
        ]
      }
    },
    {
      "type": "Feature",
      "properties": {
        "name": "Badovinci"
      },
      "geometry": {
        "type": "Point",
        "coordinates": [
          15.365793,
          45.7140161
        ]
      }
    },
    {
      "type": "Feature",
      "properties": {
        "name": "Badžula"
      },
      "geometry": {
        "type": "Point",
        "coordinates": [
          17.6112626,
          42.9623718
        ]
      }
    },
    {
      "type": "Feature",
      "properties": {
        "name": "Bađinec"
      },
      "geometry": {
        "type": "Point",
        "coordinates": [
          16.5617526,
          45.8121944
        ]
      }
    },
    {
      "type": "Feature",
      "properties": {
        "name": "Bair"
      },
      "geometry": {
        "type": "Point",
        "coordinates": [
          17.0263316,
          45.380932
        ]
      }
    },
    {
      "type": "Feature",
      "properties": {
        "name": "Bajagić"
      },
      "geometry": {
        "type": "Point",
        "coordinates": [
          16.6722221,
          43.7496775
        ]
      }
    },
    {
      "type": "Feature",
      "properties": {
        "name": "Bajčići"
      },
      "geometry": {
        "type": "Point",
        "coordinates": [
          14.5022856,
          45.0764808
        ]
      }
    },
    {
      "type": "Feature",
      "properties": {
        "name": "Bajkini"
      },
      "geometry": {
        "type": "Point",
        "coordinates": [
          13.7349922,
          45.3357867
        ]
      }
    },
    {
      "type": "Feature",
      "properties": {
        "name": "Bakar"
      },
      "geometry": {
        "type": "Point",
        "coordinates": [
          14.5342673,
          45.3071461
        ]
      }
    },
    {
      "type": "Feature",
      "properties": {
        "name": "Bakarac"
      },
      "geometry": {
        "type": "Point",
        "coordinates": [
          14.5827323,
          45.2794773
        ]
      }
    },
    {
      "type": "Feature",
      "properties": {
        "name": "Bakić"
      },
      "geometry": {
        "type": "Point",
        "coordinates": [
          17.6916506,
          45.7442395
        ]
      }
    },
    {
      "type": "Feature",
      "properties": {
        "name": "Baldaši"
      },
      "geometry": {
        "type": "Point",
        "coordinates": [
          13.7156449,
          45.3154734
        ]
      }
    },
    {
      "type": "Feature",
      "properties": {
        "name": "Balići I"
      },
      "geometry": {
        "type": "Point",
        "coordinates": [
          13.9875786,
          45.1277048
        ]
      }
    },
    {
      "type": "Feature",
      "properties": {
        "name": "Balići II"
      },
      "geometry": {
        "type": "Point",
        "coordinates": [
          13.9875786,
          45.1277048
        ]
      }
    },
    {
      "type": "Feature",
      "properties": {
        "name": "Balinac"
      },
      "geometry": {
        "type": "Point",
        "coordinates": [
          16.0417359,
          45.2955119
        ]
      }
    },
    {
      "type": "Feature",
      "properties": {
        "name": "Balinci"
      },
      "geometry": {
        "type": "Point",
        "coordinates": [
          17.7345618,
          45.6164981
        ]
      }
    },
    {
      "type": "Feature",
      "properties": {
        "name": "Baljci"
      },
      "geometry": {
        "type": "Point",
        "coordinates": [
          16.3119563,
          43.8258754
        ]
      }
    },
    {
      "type": "Feature",
      "properties": {
        "name": "Bandino Selo"
      },
      "geometry": {
        "type": "Point",
        "coordinates": [
          15.5808941,
          45.2180039
        ]
      }
    },
    {
      "type": "Feature",
      "properties": {
        "name": "Banfi"
      },
      "geometry": {
        "type": "Point",
        "coordinates": [
          16.2812187,
          46.5102045
        ]
      }
    },
    {
      "type": "Feature",
      "properties": {
        "name": "Banićevac"
      },
      "geometry": {
        "type": "Point",
        "coordinates": [
          17.4640292,
          45.3369449
        ]
      }
    },
    {
      "type": "Feature",
      "properties": {
        "name": "Banići"
      },
      "geometry": {
        "type": "Point",
        "coordinates": [
          17.8555215,
          42.7979411
        ]
      }
    },
    {
      "type": "Feature",
      "properties": {
        "name": "Banki"
      },
      "geometry": {
        "type": "Point",
        "coordinates": [
          13.7663753,
          45.2102075
        ]
      }
    },
    {
      "type": "Feature",
      "properties": {
        "name": "Bankovci"
      },
      "geometry": {
        "type": "Point",
        "coordinates": [
          17.6317566,
          45.3870169
        ]
      }
    },
    {
      "type": "Feature",
      "properties": {
        "name": "Bankovci"
      },
      "geometry": {
        "type": "Point",
        "coordinates": [
          17.9627323,
          45.5692613
        ]
      }
    },
    {
      "type": "Feature",
      "properties": {
        "name": "Banova Jaruga"
      },
      "geometry": {
        "type": "Point",
        "coordinates": [
          16.8929317,
          45.442406
        ]
      }
    },
    {
      "type": "Feature",
      "properties": {
        "name": "Banovci"
      },
      "geometry": {
        "type": "Point",
        "coordinates": [
          19.0658614,
          45.1850077
        ]
      }
    },
    {
      "type": "Feature",
      "properties": {
        "name": "Banovci"
      },
      "geometry": {
        "type": "Point",
        "coordinates": [
          19.0658614,
          45.1850077
        ]
      }
    },
    {
      "type": "Feature",
      "properties": {
        "name": "Banovo"
      },
      "geometry": {
        "type": "Point",
        "coordinates": [
          16.4331037,
          45.9154019
        ]
      }
    },
    {
      "type": "Feature",
      "properties": {
        "name": "Banska Selnica"
      },
      "geometry": {
        "type": "Point",
        "coordinates": [
          15.7278209,
          45.5056569
        ]
      }
    },
    {
      "type": "Feature",
      "properties": {
        "name": "Banski Kovačevac"
      },
      "geometry": {
        "type": "Point",
        "coordinates": [
          15.7915132,
          45.502684
        ]
      }
    },
    {
      "type": "Feature",
      "properties": {
        "name": "Banski Moravci"
      },
      "geometry": {
        "type": "Point",
        "coordinates": [
          15.757136,
          45.4619717
        ]
      }
    },
    {
      "type": "Feature",
      "properties": {
        "name": "Banšćica"
      },
      "geometry": {
        "type": "Point",
        "coordinates": [
          16.0170422,
          46.0049579
        ]
      }
    },
    {
      "type": "Feature",
      "properties": {
        "name": "Banj"
      },
      "geometry": {
        "type": "Point",
        "coordinates": [
          15.2958928,
          44.0010369
        ]
      }
    },
    {
      "type": "Feature",
      "properties": {
        "name": "Banja"
      },
      "geometry": {
        "type": "Point",
        "coordinates": [
          17.5051313,
          43.0493568
        ]
      }
    },
    {
      "type": "Feature",
      "properties": {
        "name": "Banja"
      },
      "geometry": {
        "type": "Point",
        "coordinates": [
          17.3799527,
          43.2200784
        ]
      }
    },
    {
      "type": "Feature",
      "properties": {
        "name": "Banje Selo"
      },
      "geometry": {
        "type": "Point",
        "coordinates": [
          16.2502568,
          45.85238
        ]
      }
    },
    {
      "type": "Feature",
      "properties": {
        "name": "Banjevci"
      },
      "geometry": {
        "type": "Point",
        "coordinates": [
          15.6603898,
          43.891776
        ]
      }
    },
    {
      "type": "Feature",
      "properties": {
        "name": "Banjol"
      },
      "geometry": {
        "type": "Point",
        "coordinates": [
          14.7863869,
          44.7475555
        ]
      }
    },
    {
      "type": "Feature",
      "properties": {
        "name": "Banjole"
      },
      "geometry": {
        "type": "Point",
        "coordinates": [
          13.8692798,
          44.824398
        ]
      }
    },
    {
      "type": "Feature",
      "properties": {
        "name": "Banjsko Selo"
      },
      "geometry": {
        "type": "Point",
        "coordinates": [
          15.5430838,
          45.4189052
        ]
      }
    },
    {
      "type": "Feature",
      "properties": {
        "name": "Bapča"
      },
      "geometry": {
        "type": "Point",
        "coordinates": [
          16.101768,
          45.7436186
        ]
      }
    },
    {
      "type": "Feature",
      "properties": {
        "name": "Bapska"
      },
      "geometry": {
        "type": "Point",
        "coordinates": [
          19.2605216,
          45.197775
        ]
      }
    },
    {
      "type": "Feature",
      "properties": {
        "name": "Baranjsko Petrovo Selo"
      },
      "geometry": {
        "type": "Point",
        "coordinates": [
          18.4704112,
          45.7556762
        ]
      }
    },
    {
      "type": "Feature",
      "properties": {
        "name": "Barat"
      },
      "geometry": {
        "type": "Point",
        "coordinates": [
          13.81692,
          45.1519057
        ]
      }
    },
    {
      "type": "Feature",
      "properties": {
        "name": "Barat"
      },
      "geometry": {
        "type": "Point",
        "coordinates": [
          13.7261749,
          45.2633693
        ]
      }
    },
    {
      "type": "Feature",
      "properties": {
        "name": "Barban"
      },
      "geometry": {
        "type": "Point",
        "coordinates": [
          14.0161952,
          45.064724
        ]
      }
    },
    {
      "type": "Feature",
      "properties": {
        "name": "Barbarići Kravarski"
      },
      "geometry": {
        "type": "Point",
        "coordinates": [
          16.0834758,
          45.6035387
        ]
      }
    },
    {
      "type": "Feature",
      "properties": {
        "name": "Barbat na Rabu"
      },
      "geometry": {
        "type": "Point",
        "coordinates": [
          14.8031208,
          44.7342712
        ]
      }
    },
    {
      "type": "Feature",
      "properties": {
        "name": "Barbići"
      },
      "geometry": {
        "type": "Point",
        "coordinates": [
          14.0527113,
          45.0864982
        ]
      }
    },
    {
      "type": "Feature",
      "properties": {
        "name": "Baredine"
      },
      "geometry": {
        "type": "Point",
        "coordinates": [
          13.6662812,
          45.3797436
        ]
      }
    },
    {
      "type": "Feature",
      "properties": {
        "name": "Baredine"
      },
      "geometry": {
        "type": "Point",
        "coordinates": [
          13.920046,
          45.4303963
        ]
      }
    },
    {
      "type": "Feature",
      "properties": {
        "name": "Barica"
      },
      "geometry": {
        "type": "Point",
        "coordinates": [
          19.5665546,
          48.2252381
        ]
      }
    },
    {
      "type": "Feature",
      "properties": {
        "name": "Barić Draga"
      },
      "geometry": {
        "type": "Point",
        "coordinates": [
          15.2667856,
          44.3773779
        ]
      }
    },
    {
      "type": "Feature",
      "properties": {
        "name": "Barići"
      },
      "geometry": {
        "type": "Point",
        "coordinates": [
          13.7626337,
          45.2868677
        ]
      }
    },
    {
      "type": "Feature",
      "properties": {
        "name": "Barilović"
      },
      "geometry": {
        "type": "Point",
        "coordinates": [
          15.5466794,
          45.3806407
        ]
      }
    },
    {
      "type": "Feature",
      "properties": {
        "name": "Barlabaševec"
      },
      "geometry": {
        "type": "Point",
        "coordinates": [
          16.4097117,
          46.0788155
        ]
      }
    },
    {
      "type": "Feature",
      "properties": {
        "name": "Bartići"
      },
      "geometry": {
        "type": "Point",
        "coordinates": [
          14.1086989,
          45.0526502
        ]
      }
    },
    {
      "type": "Feature",
      "properties": {
        "name": "Bartolići"
      },
      "geometry": {
        "type": "Point",
        "coordinates": [
          13.8682899,
          45.3578397
        ]
      }
    },
    {
      "type": "Feature",
      "properties": {
        "name": "Bartolovci"
      },
      "geometry": {
        "type": "Point",
        "coordinates": [
          17.9330056,
          45.1821991
        ]
      }
    },
    {
      "type": "Feature",
      "properties": {
        "name": "Bartolovec"
      },
      "geometry": {
        "type": "Point",
        "coordinates": [
          16.4351454,
          46.2970896
        ]
      }
    },
    {
      "type": "Feature",
      "properties": {
        "name": "Barušići"
      },
      "geometry": {
        "type": "Point",
        "coordinates": [
          13.9152564,
          45.3451371
        ]
      }
    },
    {
      "type": "Feature",
      "properties": {
        "name": "Barušići"
      },
      "geometry": {
        "type": "Point",
        "coordinates": [
          14.5372684,
          45.1022394
        ]
      }
    },
    {
      "type": "Feature",
      "properties": {
        "name": "Bast"
      },
      "geometry": {
        "type": "Point",
        "coordinates": [
          16.9853866,
          43.3566766
        ]
      }
    },
    {
      "type": "Feature",
      "properties": {
        "name": "Bastajski Brđani"
      },
      "geometry": {
        "type": "Point",
        "coordinates": [
          17.3511354,
          45.6723908
        ]
      }
    },
    {
      "type": "Feature",
      "properties": {
        "name": "Bašanija"
      },
      "geometry": {
        "type": "Point",
        "coordinates": [
          13.499998,
          45.4855524
        ]
      }
    },
    {
      "type": "Feature",
      "properties": {
        "name": "Bašarinka"
      },
      "geometry": {
        "type": "Point",
        "coordinates": [
          13.6235401,
          45.2667783
        ]
      }
    },
    {
      "type": "Feature",
      "properties": {
        "name": "Bašići"
      },
      "geometry": {
        "type": "Point",
        "coordinates": [
          18.4904969,
          43.1434241
        ]
      }
    },
    {
      "type": "Feature",
      "properties": {
        "name": "Baška Voda"
      },
      "geometry": {
        "type": "Point",
        "coordinates": [
          16.9561708,
          43.3559326
        ]
      }
    },
    {
      "type": "Feature",
      "properties": {
        "name": "Baške Oštarije"
      },
      "geometry": {
        "type": "Point",
        "coordinates": [
          15.176032,
          44.5269422
        ]
      }
    },
    {
      "type": "Feature",
      "properties": {
        "name": "Baškoti"
      },
      "geometry": {
        "type": "Point",
        "coordinates": [
          13.7257618,
          45.302088
        ]
      }
    },
    {
      "type": "Feature",
      "properties": {
        "name": "Baštijani"
      },
      "geometry": {
        "type": "Point",
        "coordinates": [
          14.4337195,
          45.3861958
        ]
      }
    },
    {
      "type": "Feature",
      "properties": {
        "name": "Bater"
      },
      "geometry": {
        "type": "Point",
        "coordinates": [
          14.8485826,
          45.1505083
        ]
      }
    },
    {
      "type": "Feature",
      "properties": {
        "name": "Batina"
      },
      "geometry": {
        "type": "Point",
        "coordinates": [
          18.8504633,
          45.8504469
        ]
      }
    },
    {
      "type": "Feature",
      "properties": {
        "name": "Batinova Kosa"
      },
      "geometry": {
        "type": "Point",
        "coordinates": [
          15.9750375,
          45.3346282
        ]
      }
    },
    {
      "type": "Feature",
      "properties": {
        "name": "Batinjani"
      },
      "geometry": {
        "type": "Point",
        "coordinates": [
          17.2508927,
          45.6186439
        ]
      }
    },
    {
      "type": "Feature",
      "properties": {
        "name": "Batinjani"
      },
      "geometry": {
        "type": "Point",
        "coordinates": [
          17.15125,
          45.4704344
        ]
      }
    },
    {
      "type": "Feature",
      "properties": {
        "name": "Batinjska Rijeka"
      },
      "geometry": {
        "type": "Point",
        "coordinates": [
          17.2706939,
          45.6132015
        ]
      }
    },
    {
      "type": "Feature",
      "properties": {
        "name": "Batlug"
      },
      "geometry": {
        "type": "Point",
        "coordinates": [
          13.9722368,
          45.1621558
        ]
      }
    },
    {
      "type": "Feature",
      "properties": {
        "name": "Batnoga"
      },
      "geometry": {
        "type": "Point",
        "coordinates": [
          15.7037596,
          45.1693855
        ]
      }
    },
    {
      "type": "Feature",
      "properties": {
        "name": "Batomalj"
      },
      "geometry": {
        "type": "Point",
        "coordinates": [
          14.7280995,
          44.9735227
        ]
      }
    },
    {
      "type": "Feature",
      "properties": {
        "name": "Batrina"
      },
      "geometry": {
        "type": "Point",
        "coordinates": [
          17.6630922,
          45.1880433
        ]
      }
    },
    {
      "type": "Feature",
      "properties": {
        "name": "Bazgalji"
      },
      "geometry": {
        "type": "Point",
        "coordinates": [
          13.943592,
          45.1969965
        ]
      }
    },
    {
      "type": "Feature",
      "properties": {
        "name": "Bazli"
      },
      "geometry": {
        "type": "Point",
        "coordinates": [
          14.5808874,
          45.6242523
        ]
      }
    },
    {
      "type": "Feature",
      "properties": {
        "name": "Bebrina"
      },
      "geometry": {
        "type": "Point",
        "coordinates": [
          17.8368549,
          45.0986048
        ]
      }
    },
    {
      "type": "Feature",
      "properties": {
        "name": "Beč"
      },
      "geometry": {
        "type": "Point",
        "coordinates": [
          16.3725042,
          48.2083537
        ]
      }
    },
    {
      "type": "Feature",
      "properties": {
        "name": "Bečic"
      },
      "geometry": {
        "type": "Point",
        "coordinates": [
          17.707298,
          45.1920511
        ]
      }
    },
    {
      "type": "Feature",
      "properties": {
        "name": "Bedekovčina"
      },
      "geometry": {
        "type": "Point",
        "coordinates": [
          15.9960807,
          46.0415094
        ]
      }
    },
    {
      "type": "Feature",
      "properties": {
        "name": "Bedenec"
      },
      "geometry": {
        "type": "Point",
        "coordinates": [
          16.0685556,
          46.2371941
        ]
      }
    },
    {
      "type": "Feature",
      "properties": {
        "name": "Bedenica"
      },
      "geometry": {
        "type": "Point",
        "coordinates": [
          16.24813572921712,
          46.0329285
        ]
      }
    },
    {
      "type": "Feature",
      "properties": {
        "name": "Bedenička"
      },
      "geometry": {
        "type": "Point",
        "coordinates": [
          17.0953662,
          45.8608828
        ]
      }
    },
    {
      "type": "Feature",
      "properties": {
        "name": "Bedenik"
      },
      "geometry": {
        "type": "Point",
        "coordinates": [
          17.0081274,
          45.8275687
        ]
      }
    },
    {
      "type": "Feature",
      "properties": {
        "name": "Beder"
      },
      "geometry": {
        "type": "Point",
        "coordinates": [
          15.6092774,
          45.8118673
        ]
      }
    },
    {
      "type": "Feature",
      "properties": {
        "name": "Bednja"
      },
      "geometry": {
        "type": "Point",
        "coordinates": [
          15.9826306,
          46.229237
        ]
      }
    },
    {
      "type": "Feature",
      "properties": {
        "name": "Bednjica"
      },
      "geometry": {
        "type": "Point",
        "coordinates": [
          15.9777675,
          46.2896096
        ]
      }
    },
    {
      "type": "Feature",
      "properties": {
        "name": "Begi"
      },
      "geometry": {
        "type": "Point",
        "coordinates": [
          13.7047108,
          45.1711461
        ]
      }
    },
    {
      "type": "Feature",
      "properties": {
        "name": "Begluci"
      },
      "geometry": {
        "type": "Point",
        "coordinates": [
          17.9171618,
          45.002748
        ]
      }
    },
    {
      "type": "Feature",
      "properties": {
        "name": "Begovac"
      },
      "geometry": {
        "type": "Point",
        "coordinates": [
          18.0570503,
          45.0686798
        ]
      }
    },
    {
      "type": "Feature",
      "properties": {
        "name": "Begovača"
      },
      "geometry": {
        "type": "Point",
        "coordinates": [
          16.8649349,
          45.6673407
        ]
      }
    },
    {
      "type": "Feature",
      "properties": {
        "name": "Begovići"
      },
      "geometry": {
        "type": "Point",
        "coordinates": [
          16.3262919,
          45.3013906
        ]
      }
    },
    {
      "type": "Feature",
      "properties": {
        "name": "Begovo Brdo Žumberačko"
      },
      "geometry": {
        "type": "Point",
        "coordinates": [
          15.4792827,
          45.6928988
        ]
      }
    },
    {
      "type": "Feature",
      "properties": {
        "name": "Begovo Brdo"
      },
      "geometry": {
        "type": "Point",
        "coordinates": [
          15.7007474,
          45.1767952
        ]
      }
    },
    {
      "type": "Feature",
      "properties": {
        "name": "Begovo Razdolje"
      },
      "geometry": {
        "type": "Point",
        "coordinates": [
          14.9056859,
          45.3048699
        ]
      }
    },
    {
      "type": "Feature",
      "properties": {
        "name": "Beketinci"
      },
      "geometry": {
        "type": "Point",
        "coordinates": [
          18.4816369,
          45.4572009
        ]
      }
    },
    {
      "type": "Feature",
      "properties": {
        "name": "Beketinec"
      },
      "geometry": {
        "type": "Point",
        "coordinates": [
          16.4362157,
          46.0138078
        ]
      }
    },
    {
      "type": "Feature",
      "properties": {
        "name": "Bektež"
      },
      "geometry": {
        "type": "Point",
        "coordinates": [
          17.9259971,
          45.3959343
        ]
      }
    },
    {
      "type": "Feature",
      "properties": {
        "name": "Bela Vodica"
      },
      "geometry": {
        "type": "Point",
        "coordinates": [
          14.6911345,
          45.4188024
        ]
      }
    },
    {
      "type": "Feature",
      "properties": {
        "name": "Belaj"
      },
      "geometry": {
        "type": "Point",
        "coordinates": [
          15.5493699,
          45.4269931
        ]
      }
    },
    {
      "type": "Feature",
      "properties": {
        "name": "Belaj"
      },
      "geometry": {
        "type": "Point",
        "coordinates": [
          14.1102086,
          45.2696958
        ]
      }
    },
    {
      "type": "Feature",
      "properties": {
        "name": "Belajske Poljice"
      },
      "geometry": {
        "type": "Point",
        "coordinates": [
          15.5551758,
          45.4361601
        ]
      }
    },
    {
      "type": "Feature",
      "properties": {
        "name": "Belajski Malinci"
      },
      "geometry": {
        "type": "Point",
        "coordinates": [
          15.5450357,
          45.4238593
        ]
      }
    },
    {
      "type": "Feature",
      "properties": {
        "name": "Belanovo Selo"
      },
      "geometry": {
        "type": "Point",
        "coordinates": [
          16.6568814,
          46.1877935
        ]
      }
    },
    {
      "type": "Feature",
      "properties": {
        "name": "Belavići"
      },
      "geometry": {
        "type": "Point",
        "coordinates": [
          15.4778643,
          45.4233537
        ]
      }
    },
    {
      "type": "Feature",
      "properties": {
        "name": "Belavići"
      },
      "geometry": {
        "type": "Point",
        "coordinates": [
          14.002829,
          45.0011268
        ]
      }
    },
    {
      "type": "Feature",
      "properties": {
        "name": "Belčići"
      },
      "geometry": {
        "type": "Point",
        "coordinates": [
          15.587775,
          45.7002265
        ]
      }
    },
    {
      "type": "Feature",
      "properties": {
        "name": "Belec"
      },
      "geometry": {
        "type": "Point",
        "coordinates": [
          16.1205009,
          46.131774
        ]
      }
    },
    {
      "type": "Feature",
      "properties": {
        "name": "Belej"
      },
      "geometry": {
        "type": "Point",
        "coordinates": [
          14.4245026,
          44.7758495
        ]
      }
    },
    {
      "type": "Feature",
      "properties": {
        "name": "Beletinec"
      },
      "geometry": {
        "type": "Point",
        "coordinates": [
          16.3110767,
          46.2220831
        ]
      }
    },
    {
      "type": "Feature",
      "properties": {
        "name": "Beli Manastir"
      },
      "geometry": {
        "type": "Point",
        "coordinates": [
          18.6058278,
          45.7697026
        ]
      }
    },
    {
      "type": "Feature",
      "properties": {
        "name": "Belišće"
      },
      "geometry": {
        "type": "Point",
        "coordinates": [
          18.4142244,
          45.6718054
        ]
      }
    },
    {
      "type": "Feature",
      "properties": {
        "name": "Belo Selo"
      },
      "geometry": {
        "type": "Point",
        "coordinates": [
          14.7422911,
          45.3296491
        ]
      }
    },
    {
      "type": "Feature",
      "properties": {
        "name": "Belo"
      },
      "geometry": {
        "type": "Point",
        "coordinates": [
          14.892783,
          45.4735159
        ]
      }
    },
    {
      "type": "Feature",
      "properties": {
        "name": "Beloslavec"
      },
      "geometry": {
        "type": "Point",
        "coordinates": [
          16.2204103,
          46.0350995
        ]
      }
    },
    {
      "type": "Feature",
      "properties": {
        "name": "Belošići"
      },
      "geometry": {
        "type": "Point",
        "coordinates": [
          15.4108409,
          45.6810808
        ]
      }
    },
    {
      "type": "Feature",
      "properties": {
        "name": "Belovar Zlatarski"
      },
      "geometry": {
        "type": "Point",
        "coordinates": [
          16.0037762,
          46.1074133
        ]
      }
    },
    {
      "type": "Feature",
      "properties": {
        "name": "Belovar"
      },
      "geometry": {
        "type": "Point",
        "coordinates": [
          16.8422124,
          45.898703
        ]
      }
    },
    {
      "type": "Feature",
      "properties": {
        "name": "Beljevina"
      },
      "geometry": {
        "type": "Point",
        "coordinates": [
          18.0260629,
          45.5643194
        ]
      }
    },
    {
      "type": "Feature",
      "properties": {
        "name": "Bencani"
      },
      "geometry": {
        "type": "Point",
        "coordinates": [
          13.8361434,
          45.3687479
        ]
      }
    },
    {
      "type": "Feature",
      "properties": {
        "name": "Benčani"
      },
      "geometry": {
        "type": "Point",
        "coordinates": [
          13.7395272,
          45.2822279
        ]
      }
    },
    {
      "type": "Feature",
      "properties": {
        "name": "Benčići"
      },
      "geometry": {
        "type": "Point",
        "coordinates": [
          14.0259086,
          45.3545183
        ]
      }
    },
    {
      "type": "Feature",
      "properties": {
        "name": "Benčići"
      },
      "geometry": {
        "type": "Point",
        "coordinates": [
          13.9618089,
          45.1130868
        ]
      }
    },
    {
      "type": "Feature",
      "properties": {
        "name": "Beničanci"
      },
      "geometry": {
        "type": "Point",
        "coordinates": [
          18.1784446,
          45.6384745
        ]
      }
    },
    {
      "type": "Feature",
      "properties": {
        "name": "Benkovac Fužinski"
      },
      "geometry": {
        "type": "Point",
        "coordinates": [
          14.6837022,
          45.3107004
        ]
      }
    },
    {
      "type": "Feature",
      "properties": {
        "name": "Benkovac"
      },
      "geometry": {
        "type": "Point",
        "coordinates": [
          17.202688,
          45.3077617
        ]
      }
    },
    {
      "type": "Feature",
      "properties": {
        "name": "Benkovac"
      },
      "geometry": {
        "type": "Point",
        "coordinates": [
          15.6125528,
          44.0333509
        ]
      }
    },
    {
      "type": "Feature",
      "properties": {
        "name": "Benkovačko Selo"
      },
      "geometry": {
        "type": "Point",
        "coordinates": [
          15.6170023,
          44.043668
        ]
      }
    },
    {
      "type": "Feature",
      "properties": {
        "name": "Benkovec Petrovski"
      },
      "geometry": {
        "type": "Point",
        "coordinates": [
          15.8348219,
          46.172886
        ]
      }
    },
    {
      "type": "Feature",
      "properties": {
        "name": "Benkovec"
      },
      "geometry": {
        "type": "Point",
        "coordinates": [
          15.9929708,
          46.2182215
        ]
      }
    },
    {
      "type": "Feature",
      "properties": {
        "name": "Benkovo"
      },
      "geometry": {
        "type": "Point",
        "coordinates": [
          15.8038451,
          46.1328792
        ]
      }
    },
    {
      "type": "Feature",
      "properties": {
        "name": "Berak"
      },
      "geometry": {
        "type": "Point",
        "coordinates": [
          19.0031724,
          45.2319905
        ]
      }
    },
    {
      "type": "Feature",
      "properties": {
        "name": "Beram"
      },
      "geometry": {
        "type": "Point",
        "coordinates": [
          13.8998705,
          45.2523263
        ]
      }
    },
    {
      "type": "Feature",
      "properties": {
        "name": "Beravci"
      },
      "geometry": {
        "type": "Point",
        "coordinates": [
          18.4097663,
          45.1310313
        ]
      }
    },
    {
      "type": "Feature",
      "properties": {
        "name": "Berek"
      },
      "geometry": {
        "type": "Point",
        "coordinates": [
          17.2337569,
          45.0433728
        ]
      }
    },
    {
      "type": "Feature",
      "properties": {
        "name": "Beretinec"
      },
      "geometry": {
        "type": "Point",
        "coordinates": [
          16.30651844593743,
          46.248482949999996
        ]
      }
    },
    {
      "type": "Feature",
      "properties": {
        "name": "Bertelovci"
      },
      "geometry": {
        "type": "Point",
        "coordinates": [
          17.7500602,
          45.3640671
        ]
      }
    },
    {
      "type": "Feature",
      "properties": {
        "name": "Bertoši"
      },
      "geometry": {
        "type": "Point",
        "coordinates": [
          13.9317528,
          45.2182263
        ]
      }
    },
    {
      "type": "Feature",
      "properties": {
        "name": "Bestovje"
      },
      "geometry": {
        "type": "Point",
        "coordinates": [
          15.8146051,
          45.8079452
        ]
      }
    },
    {
      "type": "Feature",
      "properties": {
        "name": "Bestrma"
      },
      "geometry": {
        "type": "Point",
        "coordinates": [
          16.4440441,
          45.3882487
        ]
      }
    },
    {
      "type": "Feature",
      "properties": {
        "name": "Bešinci"
      },
      "geometry": {
        "type": "Point",
        "coordinates": [
          17.7549489,
          45.4435478
        ]
      }
    },
    {
      "type": "Feature",
      "properties": {
        "name": "Bešlinec"
      },
      "geometry": {
        "type": "Point",
        "coordinates": [
          16.4479262,
          45.7611111
        ]
      }
    },
    {
      "type": "Feature",
      "properties": {
        "name": "Beter"
      },
      "geometry": {
        "type": "Point",
        "coordinates": [
          15.7154534,
          45.7310847
        ]
      }
    },
    {
      "type": "Feature",
      "properties": {
        "name": "Betina"
      },
      "geometry": {
        "type": "Point",
        "coordinates": [
          15.6044759,
          43.8228248
        ]
      }
    },
    {
      "type": "Feature",
      "properties": {
        "name": "Bibali"
      },
      "geometry": {
        "type": "Point",
        "coordinates": [
          13.6832354,
          45.4133377
        ]
      }
    },
    {
      "type": "Feature",
      "properties": {
        "name": "Bibići"
      },
      "geometry": {
        "type": "Point",
        "coordinates": [
          13.881612,
          45.0640476
        ]
      }
    },
    {
      "type": "Feature",
      "properties": {
        "name": "Bibinje"
      },
      "geometry": {
        "type": "Point",
        "coordinates": [
          15.2838133,
          44.071152
        ]
      }
    },
    {
      "type": "Feature",
      "properties": {
        "name": "Bicko Selo"
      },
      "geometry": {
        "type": "Point",
        "coordinates": [
          18.1910373,
          45.1657181
        ]
      }
    },
    {
      "type": "Feature",
      "properties": {
        "name": "Bičići"
      },
      "geometry": {
        "type": "Point",
        "coordinates": [
          13.9311417,
          45.0252629
        ]
      }
    },
    {
      "type": "Feature",
      "properties": {
        "name": "Bičine"
      },
      "geometry": {
        "type": "Point",
        "coordinates": [
          15.903175,
          43.8309476
        ]
      }
    },
    {
      "type": "Feature",
      "properties": {
        "name": "Bijela"
      },
      "geometry": {
        "type": "Point",
        "coordinates": [
          17.2715066,
          45.5316801
        ]
      }
    },
    {
      "type": "Feature",
      "properties": {
        "name": "Bijela Gorica"
      },
      "geometry": {
        "type": "Point",
        "coordinates": [
          15.7180312,
          45.9241266
        ]
      }
    },
    {
      "type": "Feature",
      "properties": {
        "name": "Bijela Loza"
      },
      "geometry": {
        "type": "Point",
        "coordinates": [
          18.2666581,
          45.4801173
        ]
      }
    },
    {
      "type": "Feature",
      "properties": {
        "name": "Bijela Stijena"
      },
      "geometry": {
        "type": "Point",
        "coordinates": [
          17.1936571,
          45.3419582
        ]
      }
    },
    {
      "type": "Feature",
      "properties": {
        "name": "Bijele Vode"
      },
      "geometry": {
        "type": "Point",
        "coordinates": [
          19.1027094,
          43.2962802
        ]
      }
    },
    {
      "type": "Feature",
      "properties": {
        "name": "Bijele Zemlje"
      },
      "geometry": {
        "type": "Point",
        "coordinates": [
          13.7058283,
          45.3745011
        ]
      }
    },
    {
      "type": "Feature",
      "properties": {
        "name": "Bijeli Klanac"
      },
      "geometry": {
        "type": "Point",
        "coordinates": [
          15.6026779,
          45.3041304
        ]
      }
    },
    {
      "type": "Feature",
      "properties": {
        "name": "Bijeli Vir"
      },
      "geometry": {
        "type": "Point",
        "coordinates": [
          17.655634,
          43.0096989
        ]
      }
    },
    {
      "type": "Feature",
      "properties": {
        "name": "Bijelo Brdo"
      },
      "geometry": {
        "type": "Point",
        "coordinates": [
          18.871978,
          45.5177734
        ]
      }
    },
    {
      "type": "Feature",
      "properties": {
        "name": "Bijeljevina Orahovička"
      },
      "geometry": {
        "type": "Point",
        "coordinates": [
          17.9005804,
          45.5659346
        ]
      }
    },
    {
      "type": "Feature",
      "properties": {
        "name": "Bikovec"
      },
      "geometry": {
        "type": "Point",
        "coordinates": [
          16.1989598,
          46.2819723
        ]
      }
    },
    {
      "type": "Feature",
      "properties": {
        "name": "Bila Vlaka"
      },
      "geometry": {
        "type": "Point",
        "coordinates": [
          15.694977,
          43.9073214
        ]
      }
    },
    {
      "type": "Feature",
      "properties": {
        "name": "Bilaj"
      },
      "geometry": {
        "type": "Point",
        "coordinates": [
          15.4319483,
          44.518022
        ]
      }
    },
    {
      "type": "Feature",
      "properties": {
        "name": "Bili Brig"
      },
      "geometry": {
        "type": "Point",
        "coordinates": [
          17.6120447,
          45.2118871
        ]
      }
    },
    {
      "type": "Feature",
      "properties": {
        "name": "Bilice"
      },
      "geometry": {
        "type": "Point",
        "coordinates": [
          15.9029971,
          43.7647204
        ]
      }
    },
    {
      "type": "Feature",
      "properties": {
        "name": "Bilice"
      },
      "geometry": {
        "type": "Point",
        "coordinates": [
          17.8412621,
          45.2365971
        ]
      }
    },
    {
      "type": "Feature",
      "properties": {
        "name": "Bilo"
      },
      "geometry": {
        "type": "Point",
        "coordinates": [
          15.7058254,
          45.1327715
        ]
      }
    },
    {
      "type": "Feature",
      "properties": {
        "name": "Bilje"
      },
      "geometry": {
        "type": "Point",
        "coordinates": [
          18.7437649,
          45.6039828
        ]
      }
    },
    {
      "type": "Feature",
      "properties": {
        "name": "Biljevec"
      },
      "geometry": {
        "type": "Point",
        "coordinates": [
          16.1978047,
          46.2866717
        ]
      }
    },
    {
      "type": "Feature",
      "properties": {
        "name": "Biljevina"
      },
      "geometry": {
        "type": "Point",
        "coordinates": [
          14.7162706,
          45.4551026
        ]
      }
    },
    {
      "type": "Feature",
      "properties": {
        "name": "Biljevine"
      },
      "geometry": {
        "type": "Point",
        "coordinates": [
          19.5912694,
          44.1174938
        ]
      }
    },
    {
      "type": "Feature",
      "properties": {
        "name": "Biočić"
      },
      "geometry": {
        "type": "Point",
        "coordinates": [
          16.2300084,
          43.8962334
        ]
      }
    },
    {
      "type": "Feature",
      "properties": {
        "name": "Biograd na Moru"
      },
      "geometry": {
        "type": "Point",
        "coordinates": [
          15.4397526,
          43.9394111
        ]
      }
    },
    {
      "type": "Feature",
      "properties": {
        "name": "Biokovsko Selo"
      },
      "geometry": {
        "type": "Point",
        "coordinates": [
          17.1238139,
          43.3612369
        ]
      }
    },
    {
      "type": "Feature",
      "properties": {
        "name": "Biorine"
      },
      "geometry": {
        "type": "Point",
        "coordinates": [
          16.84176,
          43.547499
        ]
      }
    },
    {
      "type": "Feature",
      "properties": {
        "name": "Biovičino Selo"
      },
      "geometry": {
        "type": "Point",
        "coordinates": [
          15.9177436,
          44.054074
        ]
      }
    },
    {
      "type": "Feature",
      "properties": {
        "name": "Birovača"
      },
      "geometry": {
        "type": "Point",
        "coordinates": [
          15.9505347,
          44.5874971
        ]
      }
    },
    {
      "type": "Feature",
      "properties": {
        "name": "Bisag"
      },
      "geometry": {
        "type": "Point",
        "coordinates": [
          16.2989057,
          46.0337432
        ]
      }
    },
    {
      "type": "Feature",
      "properties": {
        "name": "Bisko"
      },
      "geometry": {
        "type": "Point",
        "coordinates": [
          16.6815968,
          43.5812495
        ]
      }
    },
    {
      "type": "Feature",
      "properties": {
        "name": "Biskupija"
      },
      "geometry": {
        "type": "Point",
        "coordinates": [
          16.2226592,
          44.0169772
        ]
      }
    },
    {
      "type": "Feature",
      "properties": {
        "name": "Bistrač"
      },
      "geometry": {
        "type": "Point",
        "coordinates": [
          16.6350555,
          45.3855485
        ]
      }
    },
    {
      "type": "Feature",
      "properties": {
        "name": "Bistrica"
      },
      "geometry": {
        "type": "Point",
        "coordinates": [
          17.6112844,
          45.739094
        ]
      }
    },
    {
      "type": "Feature",
      "properties": {
        "name": "Bistrinci"
      },
      "geometry": {
        "type": "Point",
        "coordinates": [
          18.39645,
          45.6965912
        ]
      }
    },
    {
      "type": "Feature",
      "properties": {
        "name": "Biševo"
      },
      "geometry": {
        "type": "Point",
        "coordinates": [
          16.01130285234375,
          42.97387355
        ]
      }
    },
    {
      "type": "Feature",
      "properties": {
        "name": "Biškupci"
      },
      "geometry": {
        "type": "Point",
        "coordinates": [
          17.6095421,
          45.438594
        ]
      }
    },
    {
      "type": "Feature",
      "properties": {
        "name": "Biškupec Zelinski"
      },
      "geometry": {
        "type": "Point",
        "coordinates": [
          16.2325242,
          45.9615472
        ]
      }
    },
    {
      "type": "Feature",
      "properties": {
        "name": "Bitorajci"
      },
      "geometry": {
        "type": "Point",
        "coordinates": [
          15.2893783,
          45.4118615
        ]
      }
    },
    {
      "type": "Feature",
      "properties": {
        "name": "Bizovac"
      },
      "geometry": {
        "type": "Point",
        "coordinates": [
          18.4530411,
          45.5873069
        ]
      }
    },
    {
      "type": "Feature",
      "properties": {
        "name": "Bjelajci"
      },
      "geometry": {
        "type": "Point",
        "coordinates": [
          16.8161951,
          45.1182488
        ]
      }
    },
    {
      "type": "Feature",
      "properties": {
        "name": "Bjelina"
      },
      "geometry": {
        "type": "Point",
        "coordinates": [
          15.8379067,
          44.0451442
        ]
      }
    },
    {
      "type": "Feature",
      "properties": {
        "name": "Bjeliševac"
      },
      "geometry": {
        "type": "Point",
        "coordinates": [
          17.8445603,
          45.3811847
        ]
      }
    },
    {
      "type": "Feature",
      "properties": {
        "name": "Bjelopolje"
      },
      "geometry": {
        "type": "Point",
        "coordinates": [
          15.7499758,
          44.70269
        ]
      }
    },
    {
      "type": "Feature",
      "properties": {
        "name": "Bjelovar"
      },
      "geometry": {
        "type": "Point",
        "coordinates": [
          16.8422124,
          45.898703
        ]
      }
    },
    {
      "type": "Feature",
      "properties": {
        "name": "Blaca"
      },
      "geometry": {
        "type": "Point",
        "coordinates": [
          16.4619292,
          43.5737998
        ]
      }
    },
    {
      "type": "Feature",
      "properties": {
        "name": "Blace"
      },
      "geometry": {
        "type": "Point",
        "coordinates": [
          17.4824238,
          43.003329
        ]
      }
    },
    {
      "type": "Feature",
      "properties": {
        "name": "Blacko"
      },
      "geometry": {
        "type": "Point",
        "coordinates": [
          17.7752029,
          45.3164257
        ]
      }
    },
    {
      "type": "Feature",
      "properties": {
        "name": "Blagaj"
      },
      "geometry": {
        "type": "Point",
        "coordinates": [
          15.5396292,
          45.2135788
        ]
      }
    },
    {
      "type": "Feature",
      "properties": {
        "name": "Blagdanići"
      },
      "geometry": {
        "type": "Point",
        "coordinates": [
          13.650998,
          45.2611268
        ]
      }
    },
    {
      "type": "Feature",
      "properties": {
        "name": "Blagorodovac"
      },
      "geometry": {
        "type": "Point",
        "coordinates": [
          17.0358372,
          45.5534246
        ]
      }
    },
    {
      "type": "Feature",
      "properties": {
        "name": "Blaguša"
      },
      "geometry": {
        "type": "Point",
        "coordinates": [
          16.1361904,
          45.8958242
        ]
      }
    },
    {
      "type": "Feature",
      "properties": {
        "name": "Blanje"
      },
      "geometry": {
        "type": "Point",
        "coordinates": [
          18.0860422,
          45.7163162
        ]
      }
    },
    {
      "type": "Feature",
      "properties": {
        "name": "Blaškovec"
      },
      "geometry": {
        "type": "Point",
        "coordinates": [
          16.1893581,
          45.9100997
        ]
      }
    },
    {
      "type": "Feature",
      "properties": {
        "name": "Blaškovići"
      },
      "geometry": {
        "type": "Point",
        "coordinates": [
          14.1150094,
          45.1825061
        ]
      }
    },
    {
      "type": "Feature",
      "properties": {
        "name": "Blata"
      },
      "geometry": {
        "type": "Point",
        "coordinates": [
          15.4007787,
          45.0319921
        ]
      }
    },
    {
      "type": "Feature",
      "properties": {
        "name": "Blatna Vas"
      },
      "geometry": {
        "type": "Point",
        "coordinates": [
          14.025007,
          45.3762893
        ]
      }
    },
    {
      "type": "Feature",
      "properties": {
        "name": "Blatnica"
      },
      "geometry": {
        "type": "Point",
        "coordinates": [
          16.7396647,
          45.8303048
        ]
      }
    },
    {
      "type": "Feature",
      "properties": {
        "name": "Blato"
      },
      "geometry": {
        "type": "Point",
        "coordinates": [
          16.7912696,
          42.9388312
        ]
      }
    },
    {
      "type": "Feature",
      "properties": {
        "name": "Blato"
      },
      "geometry": {
        "type": "Point",
        "coordinates": [
          17.4828353,
          42.7623288
        ]
      }
    },
    {
      "type": "Feature",
      "properties": {
        "name": "Blato na Cetini"
      },
      "geometry": {
        "type": "Point",
        "coordinates": [
          16.8447293,
          43.4800407
        ]
      }
    },
    {
      "type": "Feature",
      "properties": {
        "name": "Blatuša"
      },
      "geometry": {
        "type": "Point",
        "coordinates": [
          15.8585203,
          45.3164298
        ]
      }
    },
    {
      "type": "Feature",
      "properties": {
        "name": "Blaževci"
      },
      "geometry": {
        "type": "Point",
        "coordinates": [
          15.0720129,
          45.484655
        ]
      }
    },
    {
      "type": "Feature",
      "properties": {
        "name": "Blaževdol"
      },
      "geometry": {
        "type": "Point",
        "coordinates": [
          16.2362579,
          45.937803
        ]
      }
    },
    {
      "type": "Feature",
      "properties": {
        "name": "Blažević Dol"
      },
      "geometry": {
        "type": "Point",
        "coordinates": [
          17.5855701,
          45.2449453
        ]
      }
    },
    {
      "type": "Feature",
      "properties": {
        "name": "Blinja"
      },
      "geometry": {
        "type": "Point",
        "coordinates": [
          16.367175,
          45.3560014
        ]
      }
    },
    {
      "type": "Feature",
      "properties": {
        "name": "Blinjski Kut"
      },
      "geometry": {
        "type": "Point",
        "coordinates": [
          16.4533147,
          45.4157136
        ]
      }
    },
    {
      "type": "Feature",
      "properties": {
        "name": "Blizna Donja"
      },
      "geometry": {
        "type": "Point",
        "coordinates": [
          16.097982,
          43.5825367
        ]
      }
    },
    {
      "type": "Feature",
      "properties": {
        "name": "Blizna Gornja"
      },
      "geometry": {
        "type": "Point",
        "coordinates": [
          16.1048615,
          43.6014442
        ]
      }
    },
    {
      "type": "Feature",
      "properties": {
        "name": "Bobare"
      },
      "geometry": {
        "type": "Point",
        "coordinates": [
          17.2306242,
          45.3473975
        ]
      }
    },
    {
      "type": "Feature",
      "properties": {
        "name": "Bobodol"
      },
      "geometry": {
        "type": "Point",
        "coordinates": [
          16.1077386,
          43.9905187
        ]
      }
    },
    {
      "type": "Feature",
      "properties": {
        "name": "Bobota"
      },
      "geometry": {
        "type": "Point",
        "coordinates": [
          18.8567828,
          45.4223413
        ]
      }
    },
    {
      "type": "Feature",
      "properties": {
        "name": "Bobovac"
      },
      "geometry": {
        "type": "Point",
        "coordinates": [
          16.6752285,
          45.3768445
        ]
      }
    },
    {
      "type": "Feature",
      "properties": {
        "name": "Bobovec Rozganski"
      },
      "geometry": {
        "type": "Point",
        "coordinates": [
          15.7495299,
          45.9464272
        ]
      }
    },
    {
      "type": "Feature",
      "properties": {
        "name": "Bobovec Tomaševečki"
      },
      "geometry": {
        "type": "Point",
        "coordinates": [
          15.7686979,
          46.0443771
        ]
      }
    },
    {
      "type": "Feature",
      "properties": {
        "name": "Bobovica"
      },
      "geometry": {
        "type": "Point",
        "coordinates": [
          15.7139591,
          45.8315378
        ]
      }
    },
    {
      "type": "Feature",
      "properties": {
        "name": "Bobovišća na Moru"
      },
      "geometry": {
        "type": "Point",
        "coordinates": [
          16.449594876683403,
          43.32481885
        ]
      }
    },
    {
      "type": "Feature",
      "properties": {
        "name": "Bobovišća"
      },
      "geometry": {
        "type": "Point",
        "coordinates": [
          16.4763237,
          43.3454888
        ]
      }
    },
    {
      "type": "Feature",
      "properties": {
        "name": "Bobovje"
      },
      "geometry": {
        "type": "Point",
        "coordinates": [
          15.8685133,
          46.1494225
        ]
      }
    },
    {
      "type": "Feature",
      "properties": {
        "name": "Bocanjevci"
      },
      "geometry": {
        "type": "Point",
        "coordinates": [
          18.3360297,
          45.6399146
        ]
      }
    },
    {
      "type": "Feature",
      "properties": {
        "name": "Bockovac"
      },
      "geometry": {
        "type": "Point",
        "coordinates": [
          18.0938155,
          45.7152363
        ]
      }
    },
    {
      "type": "Feature",
      "properties": {
        "name": "Bočkinci"
      },
      "geometry": {
        "type": "Point",
        "coordinates": [
          18.2705397,
          45.7121373
        ]
      }
    },
    {
      "type": "Feature",
      "properties": {
        "name": "Bočkovec"
      },
      "geometry": {
        "type": "Point",
        "coordinates": [
          16.4921084,
          46.0784515
        ]
      }
    },
    {
      "type": "Feature",
      "properties": {
        "name": "Bodegraj"
      },
      "geometry": {
        "type": "Point",
        "coordinates": [
          17.1825946,
          45.2663611
        ]
      }
    },
    {
      "type": "Feature",
      "properties": {
        "name": "Bodovaljci"
      },
      "geometry": {
        "type": "Point",
        "coordinates": [
          17.4430965,
          45.1988415
        ]
      }
    },
    {
      "type": "Feature",
      "properties": {
        "name": "Bogačevo Riječko"
      },
      "geometry": {
        "type": "Point",
        "coordinates": [
          16.4206833,
          46.0852529
        ]
      }
    },
    {
      "type": "Feature",
      "properties": {
        "name": "Bogačevo"
      },
      "geometry": {
        "type": "Point",
        "coordinates": [
          16.4272915,
          46.0832919
        ]
      }
    },
    {
      "type": "Feature",
      "properties": {
        "name": "Bogatić"
      },
      "geometry": {
        "type": "Point",
        "coordinates": [
          15.9959437,
          43.9085251
        ]
      }
    },
    {
      "type": "Feature",
      "properties": {
        "name": "Bogdanovci"
      },
      "geometry": {
        "type": "Point",
        "coordinates": [
          18.9309357,
          45.3375863
        ]
      }
    },
    {
      "type": "Feature",
      "properties": {
        "name": "Bogdanovec"
      },
      "geometry": {
        "type": "Point",
        "coordinates": [
          16.3148452,
          46.4246251
        ]
      }
    },
    {
      "type": "Feature",
      "properties": {
        "name": "Bogdanovići"
      },
      "geometry": {
        "type": "Point",
        "coordinates": [
          16.2357543,
          43.656866
        ]
      }
    },
    {
      "type": "Feature",
      "properties": {
        "name": "Bogdašić"
      },
      "geometry": {
        "type": "Point",
        "coordinates": [
          17.1801164,
          43.8561332
        ]
      }
    },
    {
      "type": "Feature",
      "properties": {
        "name": "Bogomolje"
      },
      "geometry": {
        "type": "Point",
        "coordinates": [
          16.9981853,
          43.1309589
        ]
      }
    },
    {
      "type": "Feature",
      "properties": {
        "name": "Bogovići"
      },
      "geometry": {
        "type": "Point",
        "coordinates": [
          14.52977980336018,
          45.1153065
        ]
      }
    },
    {
      "type": "Feature",
      "properties": {
        "name": "Bogovolja"
      },
      "geometry": {
        "type": "Point",
        "coordinates": [
          15.7411641,
          45.079006
        ]
      }
    },
    {
      "type": "Feature",
      "properties": {
        "name": "Bojana"
      },
      "geometry": {
        "type": "Point",
        "coordinates": [
          16.6826594,
          45.7583637
        ]
      }
    },
    {
      "type": "Feature",
      "properties": {
        "name": "Bojna"
      },
      "geometry": {
        "type": "Point",
        "coordinates": [
          16.0423734,
          45.190877
        ]
      }
    },
    {
      "type": "Feature",
      "properties": {
        "name": "Bojnikovec"
      },
      "geometry": {
        "type": "Point",
        "coordinates": [
          16.4973675,
          45.9972236
        ]
      }
    },
    {
      "type": "Feature",
      "properties": {
        "name": "Bok Palanječki"
      },
      "geometry": {
        "type": "Point",
        "coordinates": [
          16.4119109,
          45.5090841
        ]
      }
    },
    {
      "type": "Feature",
      "properties": {
        "name": "Bokordići"
      },
      "geometry": {
        "type": "Point",
        "coordinates": [
          13.9105874,
          45.0642211
        ]
      }
    },
    {
      "type": "Feature",
      "properties": {
        "name": "Bokšić"
      },
      "geometry": {
        "type": "Point",
        "coordinates": [
          18.0320345,
          45.5876332
        ]
      }
    },
    {
      "type": "Feature",
      "properties": {
        "name": "Bokšić"
      },
      "geometry": {
        "type": "Point",
        "coordinates": [
          19.0777685,
          45.2122054
        ]
      }
    },
    {
      "type": "Feature",
      "properties": {
        "name": "Bokšić Lug"
      },
      "geometry": {
        "type": "Point",
        "coordinates": [
          18.0612846,
          45.6201536
        ]
      }
    },
    {
      "type": "Feature",
      "properties": {
        "name": "Bol"
      },
      "geometry": {
        "type": "Point",
        "coordinates": [
          16.6520192,
          43.2605186
        ]
      }
    },
    {
      "type": "Feature",
      "properties": {
        "name": "Bolfan"
      },
      "geometry": {
        "type": "Point",
        "coordinates": [
          16.6773767,
          46.2208129
        ]
      }
    },
    {
      "type": "Feature",
      "properties": {
        "name": "Bolman"
      },
      "geometry": {
        "type": "Point",
        "coordinates": [
          18.5172451,
          45.7221053
        ]
      }
    },
    {
      "type": "Feature",
      "properties": {
        "name": "Bolomače"
      },
      "geometry": {
        "type": "Point",
        "coordinates": [
          17.5259671,
          45.3456636
        ]
      }
    },
    {
      "type": "Feature",
      "properties": {
        "name": "Boljenovići"
      },
      "geometry": {
        "type": "Point",
        "coordinates": [
          17.6244421,
          42.848724
        ]
      }
    },
    {
      "type": "Feature",
      "properties": {
        "name": "Boljevići"
      },
      "geometry": {
        "type": "Point",
        "coordinates": [
          14.1097678,
          45.1668599
        ]
      }
    },
    {
      "type": "Feature",
      "properties": {
        "name": "Boljun"
      },
      "geometry": {
        "type": "Point",
        "coordinates": [
          14.111666056645426,
          45.3038175
        ]
      }
    },
    {
      "type": "Feature",
      "properties": {
        "name": "Boljunsko Polje"
      },
      "geometry": {
        "type": "Point",
        "coordinates": [
          14.140316510287807,
          45.288422999999995
        ]
      }
    },
    {
      "type": "Feature",
      "properties": {
        "name": "Bonaci"
      },
      "geometry": {
        "type": "Point",
        "coordinates": [
          13.7198433,
          45.2127829
        ]
      }
    },
    {
      "type": "Feature",
      "properties": {
        "name": "Boraja"
      },
      "geometry": {
        "type": "Point",
        "coordinates": [
          16.0793863,
          43.6308438
        ]
      }
    },
    {
      "type": "Feature",
      "properties": {
        "name": "Borak"
      },
      "geometry": {
        "type": "Point",
        "coordinates": [
          16.7066964,
          43.4394793
        ]
      }
    },
    {
      "type": "Feature",
      "properties": {
        "name": "Borenec"
      },
      "geometry": {
        "type": "Point",
        "coordinates": [
          16.2995494,
          46.0441699
        ]
      }
    },
    {
      "type": "Feature",
      "properties": {
        "name": "Boričevac"
      },
      "geometry": {
        "type": "Point",
        "coordinates": [
          16.0271849,
          44.5327275
        ]
      }
    },
    {
      "type": "Feature",
      "properties": {
        "name": "Boričevci"
      },
      "geometry": {
        "type": "Point",
        "coordinates": [
          17.5436516,
          45.3604848
        ]
      }
    },
    {
      "type": "Feature",
      "properties": {
        "name": "Borik"
      },
      "geometry": {
        "type": "Point",
        "coordinates": [
          17.8178271,
          45.6298428
        ]
      }
    },
    {
      "type": "Feature",
      "properties": {
        "name": "Borinići"
      },
      "geometry": {
        "type": "Point",
        "coordinates": [
          13.9806104,
          45.0307774
        ]
      }
    },
    {
      "type": "Feature",
      "properties": {
        "name": "Borje"
      },
      "geometry": {
        "type": "Point",
        "coordinates": [
          16.4461638,
          46.1230474
        ]
      }
    },
    {
      "type": "Feature",
      "properties": {
        "name": "Borojevci"
      },
      "geometry": {
        "type": "Point",
        "coordinates": [
          18.0998897,
          45.2844589
        ]
      }
    },
    {
      "type": "Feature",
      "properties": {
        "name": "Borojevići"
      },
      "geometry": {
        "type": "Point",
        "coordinates": [
          16.4097809,
          45.2957276
        ]
      }
    },
    {
      "type": "Feature",
      "properties": {
        "name": "Borova Kosa"
      },
      "geometry": {
        "type": "Point",
        "coordinates": [
          17.254058166760565,
          45.6523246
        ]
      }
    },
    {
      "type": "Feature",
      "properties": {
        "name": "Borova"
      },
      "geometry": {
        "type": "Point",
        "coordinates": [
          17.4608324,
          45.7848116
        ]
      }
    },
    {
      "type": "Feature",
      "properties": {
        "name": "Borovac"
      },
      "geometry": {
        "type": "Point",
        "coordinates": [
          17.1450034,
          45.2896537
        ]
      }
    },
    {
      "type": "Feature",
      "properties": {
        "name": "Borovci"
      },
      "geometry": {
        "type": "Point",
        "coordinates": [
          17.5543644,
          43.1223294
        ]
      }
    },
    {
      "type": "Feature",
      "properties": {
        "name": "Borovik"
      },
      "geometry": {
        "type": "Point",
        "coordinates": [
          18.1976427,
          45.3945807
        ]
      }
    },
    {
      "type": "Feature",
      "properties": {
        "name": "Borovik"
      },
      "geometry": {
        "type": "Point",
        "coordinates": [
          16.1326332,
          43.0333395
        ]
      }
    },
    {
      "type": "Feature",
      "properties": {
        "name": "Borovljani"
      },
      "geometry": {
        "type": "Point",
        "coordinates": [
          16.8904618,
          46.1077189
        ]
      }
    },
    {
      "type": "Feature",
      "properties": {
        "name": "Borovo"
      },
      "geometry": {
        "type": "Point",
        "coordinates": [
          18.9786114,
          45.4029097
        ]
      }
    },
    {
      "type": "Feature",
      "properties": {
        "name": "Borut"
      },
      "geometry": {
        "type": "Point",
        "coordinates": [
          14.0511997,
          45.3048335
        ]
      }
    },
    {
      "type": "Feature",
      "properties": {
        "name": "Bosanci"
      },
      "geometry": {
        "type": "Point",
        "coordinates": [
          15.2642332,
          45.4435242
        ]
      }
    },
    {
      "type": "Feature",
      "properties": {
        "name": "Bosanka"
      },
      "geometry": {
        "type": "Point",
        "coordinates": [
          18.1261141,
          42.6444096
        ]
      }
    },
    {
      "type": "Feature",
      "properties": {
        "name": "Bosiljevo"
      },
      "geometry": {
        "type": "Point",
        "coordinates": [
          15.2882998,
          45.4120999
        ]
      }
    },
    {
      "type": "Feature",
      "properties": {
        "name": "Bosiljevo"
      },
      "geometry": {
        "type": "Point",
        "coordinates": [
          16.5740173,
          45.7405934
        ]
      }
    },
    {
      "type": "Feature",
      "properties": {
        "name": "Bosna"
      },
      "geometry": {
        "type": "Point",
        "coordinates": [
          16.249992768055918,
          46.03344115
        ]
      }
    },
    {
      "type": "Feature",
      "properties": {
        "name": "Bošana"
      },
      "geometry": {
        "type": "Point",
        "coordinates": [
          15.0203154,
          44.4619158
        ]
      }
    },
    {
      "type": "Feature",
      "properties": {
        "name": "Boškari"
      },
      "geometry": {
        "type": "Point",
        "coordinates": [
          13.8933714,
          45.0345611
        ]
      }
    },
    {
      "type": "Feature",
      "properties": {
        "name": "Bošnjaci"
      },
      "geometry": {
        "type": "Point",
        "coordinates": [
          18.7550906,
          45.0497702
        ]
      }
    },
    {
      "type": "Feature",
      "properties": {
        "name": "Bošt"
      },
      "geometry": {
        "type": "Point",
        "coordinates": [
          15.5003597,
          45.4069783
        ]
      }
    },
    {
      "type": "Feature",
      "properties": {
        "name": "Botinac"
      },
      "geometry": {
        "type": "Point",
        "coordinates": [
          16.8630488,
          45.9962572
        ]
      }
    },
    {
      "type": "Feature",
      "properties": {
        "name": "Botinec"
      },
      "geometry": {
        "type": "Point",
        "coordinates": [
          15.932847,
          45.7457131
        ]
      }
    },
    {
      "type": "Feature",
      "properties": {
        "name": "Botinovec"
      },
      "geometry": {
        "type": "Point",
        "coordinates": [
          16.7707449,
          46.2063162
        ]
      }
    },
    {
      "type": "Feature",
      "properties": {
        "name": "Botovo"
      },
      "geometry": {
        "type": "Point",
        "coordinates": [
          16.9190919,
          46.2195448
        ]
      }
    },
    {
      "type": "Feature",
      "properties": {
        "name": "Bović"
      },
      "geometry": {
        "type": "Point",
        "coordinates": [
          15.9314887,
          45.404245
        ]
      }
    },
    {
      "type": "Feature",
      "properties": {
        "name": "Božava"
      },
      "geometry": {
        "type": "Point",
        "coordinates": [
          14.9050549,
          44.1405974
        ]
      }
    },
    {
      "type": "Feature",
      "properties": {
        "name": "Božjakovina"
      },
      "geometry": {
        "type": "Point",
        "coordinates": [
          16.2871783,
          45.8194685
        ]
      }
    },
    {
      "type": "Feature",
      "properties": {
        "name": "Bračak"
      },
      "geometry": {
        "type": "Point",
        "coordinates": [
          15.9320158,
          46.0158533
        ]
      }
    },
    {
      "type": "Feature",
      "properties": {
        "name": "Bračevci"
      },
      "geometry": {
        "type": "Point",
        "coordinates": [
          18.2768449,
          45.4297856
        ]
      }
    },
    {
      "type": "Feature",
      "properties": {
        "name": "Bračević"
      },
      "geometry": {
        "type": "Point",
        "coordinates": [
          16.4072184,
          43.7413689
        ]
      }
    },
    {
      "type": "Feature",
      "properties": {
        "name": "Brajdić Selo"
      },
      "geometry": {
        "type": "Point",
        "coordinates": [
          15.6427073,
          44.9856924
        ]
      }
    },
    {
      "type": "Feature",
      "properties": {
        "name": "Brajkovići"
      },
      "geometry": {
        "type": "Point",
        "coordinates": [
          13.7637265,
          45.1106178
        ]
      }
    },
    {
      "type": "Feature",
      "properties": {
        "name": "Brajkovići"
      },
      "geometry": {
        "type": "Point",
        "coordinates": [
          13.8619101,
          45.257818
        ]
      }
    },
    {
      "type": "Feature",
      "properties": {
        "name": "Bralići"
      },
      "geometry": {
        "type": "Point",
        "coordinates": [
          13.6908792,
          45.1681599
        ]
      }
    },
    {
      "type": "Feature",
      "properties": {
        "name": "Branešci"
      },
      "geometry": {
        "type": "Point",
        "coordinates": [
          19.70920510231396,
          43.76432995
        ]
      }
    },
    {
      "type": "Feature",
      "properties": {
        "name": "Branimirovac"
      },
      "geometry": {
        "type": "Point",
        "coordinates": [
          18.2936479,
          45.5044549
        ]
      }
    },
    {
      "type": "Feature",
      "properties": {
        "name": "Branjin Vrh"
      },
      "geometry": {
        "type": "Point",
        "coordinates": [
          18.6116863,
          45.7940766
        ]
      }
    },
    {
      "type": "Feature",
      "properties": {
        "name": "Branjina"
      },
      "geometry": {
        "type": "Point",
        "coordinates": [
          18.6933755,
          45.8245422
        ]
      }
    },
    {
      "type": "Feature",
      "properties": {
        "name": "Braslovje"
      },
      "geometry": {
        "type": "Point",
        "coordinates": [
          15.6569312,
          45.7573666
        ]
      }
    },
    {
      "type": "Feature",
      "properties": {
        "name": "Brašina"
      },
      "geometry": {
        "type": "Point",
        "coordinates": [
          18.1963648,
          42.6264834
        ]
      }
    },
    {
      "type": "Feature",
      "properties": {
        "name": "Brašljevica"
      },
      "geometry": {
        "type": "Point",
        "coordinates": [
          15.3554492,
          45.684114
        ]
      }
    },
    {
      "type": "Feature",
      "properties": {
        "name": "Bratelji"
      },
      "geometry": {
        "type": "Point",
        "coordinates": [
          15.5046691,
          45.794117
        ]
      }
    },
    {
      "type": "Feature",
      "properties": {
        "name": "Bratina"
      },
      "geometry": {
        "type": "Point",
        "coordinates": [
          15.8256055,
          45.6224057
        ]
      }
    },
    {
      "type": "Feature",
      "properties": {
        "name": "Bratiškovci"
      },
      "geometry": {
        "type": "Point",
        "coordinates": [
          15.9062068,
          43.8893887
        ]
      }
    },
    {
      "type": "Feature",
      "properties": {
        "name": "Bratkovec"
      },
      "geometry": {
        "type": "Point",
        "coordinates": [
          15.6030872,
          46.1493949
        ]
      }
    },
    {
      "type": "Feature",
      "properties": {
        "name": "Bratovići"
      },
      "geometry": {
        "type": "Point",
        "coordinates": [
          13.7517482,
          45.2190796
        ]
      }
    },
    {
      "type": "Feature",
      "properties": {
        "name": "Bratulići"
      },
      "geometry": {
        "type": "Point",
        "coordinates": [
          13.9914859,
          45.0026749
        ]
      }
    },
    {
      "type": "Feature",
      "properties": {
        "name": "Bratulići"
      },
      "geometry": {
        "type": "Point",
        "coordinates": [
          13.9914859,
          45.0026749
        ]
      }
    },
    {
      "type": "Feature",
      "properties": {
        "name": "Bratuš"
      },
      "geometry": {
        "type": "Point",
        "coordinates": [
          16.9775325,
          43.3292377
        ]
      }
    },
    {
      "type": "Feature",
      "properties": {
        "name": "Brbinj"
      },
      "geometry": {
        "type": "Point",
        "coordinates": [
          15.0002686,
          44.080579
        ]
      }
    },
    {
      "type": "Feature",
      "properties": {
        "name": "Brckovljani"
      },
      "geometry": {
        "type": "Point",
        "coordinates": [
          16.292987136074288,
          45.8364159
        ]
      }
    },
    {
      "type": "Feature",
      "properties": {
        "name": "Brčevec"
      },
      "geometry": {
        "type": "Point",
        "coordinates": [
          16.4127097,
          45.8663641
        ]
      }
    },
    {
      "type": "Feature",
      "properties": {
        "name": "Brčići"
      },
      "geometry": {
        "type": "Point",
        "coordinates": [
          13.6659334,
          45.2634764
        ]
      }
    },
    {
      "type": "Feature",
      "properties": {
        "name": "Brčići"
      },
      "geometry": {
        "type": "Point",
        "coordinates": [
          13.794475,
          45.244693
        ]
      }
    },
    {
      "type": "Feature",
      "properties": {
        "name": "Brčino"
      },
      "geometry": {
        "type": "Point",
        "coordinates": [
          17.8944308,
          45.2581715
        ]
      }
    },
    {
      "type": "Feature",
      "properties": {
        "name": "Brdce"
      },
      "geometry": {
        "type": "Point",
        "coordinates": [
          14.2350443,
          45.4952897
        ]
      }
    },
    {
      "type": "Feature",
      "properties": {
        "name": "Brdo"
      },
      "geometry": {
        "type": "Point",
        "coordinates": [
          13.7597163,
          45.4495714
        ]
      }
    },
    {
      "type": "Feature",
      "properties": {
        "name": "Brdo Orehovečko"
      },
      "geometry": {
        "type": "Point",
        "coordinates": [
          16.4945128,
          46.0621024
        ]
      }
    },
    {
      "type": "Feature",
      "properties": {
        "name": "Brdovec"
      },
      "geometry": {
        "type": "Point",
        "coordinates": [
          15.7522118,
          45.8720612
        ]
      }
    },
    {
      "type": "Feature",
      "properties": {
        "name": "Brđani"
      },
      "geometry": {
        "type": "Point",
        "coordinates": [
          17.8784458,
          45.2557298
        ]
      }
    },
    {
      "type": "Feature",
      "properties": {
        "name": "Brđani"
      },
      "geometry": {
        "type": "Point",
        "coordinates": [
          17.4770392,
          45.2527897
        ]
      }
    },
    {
      "type": "Feature",
      "properties": {
        "name": "Brđani Cesta"
      },
      "geometry": {
        "type": "Point",
        "coordinates": [
          16.4934341,
          45.3773065
        ]
      }
    },
    {
      "type": "Feature",
      "properties": {
        "name": "Brđani Sokolovački"
      },
      "geometry": {
        "type": "Point",
        "coordinates": [
          16.7529788,
          46.0671559
        ]
      }
    },
    {
      "type": "Feature",
      "properties": {
        "name": "Brebernica"
      },
      "geometry": {
        "type": "Point",
        "coordinates": [
          15.7722926,
          45.6295797
        ]
      }
    },
    {
      "type": "Feature",
      "properties": {
        "name": "Brebornica"
      },
      "geometry": {
        "type": "Point",
        "coordinates": [
          15.608617,
          45.3017202
        ]
      }
    },
    {
      "type": "Feature",
      "properties": {
        "name": "Brebrovac"
      },
      "geometry": {
        "type": "Point",
        "coordinates": [
          15.5491399,
          45.6795825
        ]
      }
    },
    {
      "type": "Feature",
      "properties": {
        "name": "Brečevići"
      },
      "geometry": {
        "type": "Point",
        "coordinates": [
          13.8120963,
          45.2267951
        ]
      }
    },
    {
      "type": "Feature",
      "properties": {
        "name": "Brečići"
      },
      "geometry": {
        "type": "Point",
        "coordinates": [
          17.4876571,
          43.126491
        ]
      }
    },
    {
      "type": "Feature",
      "properties": {
        "name": "Breg Mokrički"
      },
      "geometry": {
        "type": "Point",
        "coordinates": [
          16.261019,
          45.9586484
        ]
      }
    },
    {
      "type": "Feature",
      "properties": {
        "name": "Breg"
      },
      "geometry": {
        "type": "Point",
        "coordinates": [
          14.0822534,
          45.0613469
        ]
      }
    },
    {
      "type": "Feature",
      "properties": {
        "name": "Bregana Pisarovinska"
      },
      "geometry": {
        "type": "Point",
        "coordinates": [
          15.8686279,
          45.6252708
        ]
      }
    },
    {
      "type": "Feature",
      "properties": {
        "name": "Bregana"
      },
      "geometry": {
        "type": "Point",
        "coordinates": [
          15.6877592,
          45.8378391
        ]
      }
    },
    {
      "type": "Feature",
      "properties": {
        "name": "Breganica"
      },
      "geometry": {
        "type": "Point",
        "coordinates": [
          15.6451723,
          45.8125366
        ]
      }
    },
    {
      "type": "Feature",
      "properties": {
        "name": "Bregi Kostelski"
      },
      "geometry": {
        "type": "Point",
        "coordinates": [
          15.7522598,
          46.1954107
        ]
      }
    },
    {
      "type": "Feature",
      "properties": {
        "name": "Bregi Radobojski"
      },
      "geometry": {
        "type": "Point",
        "coordinates": [
          15.9090493,
          46.1364905
        ]
      }
    },
    {
      "type": "Feature",
      "properties": {
        "name": "Bregi Zabočki"
      },
      "geometry": {
        "type": "Point",
        "coordinates": [
          15.898379,
          46.0346128
        ]
      }
    },
    {
      "type": "Feature",
      "properties": {
        "name": "Bregi"
      },
      "geometry": {
        "type": "Point",
        "coordinates": [
          14.2994762,
          45.3491973
        ]
      }
    },
    {
      "type": "Feature",
      "properties": {
        "name": "Brekinska"
      },
      "geometry": {
        "type": "Point",
        "coordinates": [
          17.0636419,
          45.49995
        ]
      }
    },
    {
      "type": "Feature",
      "properties": {
        "name": "Brela"
      },
      "geometry": {
        "type": "Point",
        "coordinates": [
          16.9334935,
          43.3689475
        ]
      }
    },
    {
      "type": "Feature",
      "properties": {
        "name": "Bresnica"
      },
      "geometry": {
        "type": "Point",
        "coordinates": [
          17.7850547,
          45.2774375
        ]
      }
    },
    {
      "type": "Feature",
      "properties": {
        "name": "Brest pod Učkom"
      },
      "geometry": {
        "type": "Point",
        "coordinates": [
          14.1861213593606,
          45.3448707
        ]
      }
    },
    {
      "type": "Feature",
      "properties": {
        "name": "Brest Pokupski"
      },
      "geometry": {
        "type": "Point",
        "coordinates": [
          16.2560801,
          45.4532035
        ]
      }
    },
    {
      "type": "Feature",
      "properties": {
        "name": "Brest"
      },
      "geometry": {
        "type": "Point",
        "coordinates": [
          14.0050608,
          45.455557
        ]
      }
    },
    {
      "type": "Feature",
      "properties": {
        "name": "Brestača"
      },
      "geometry": {
        "type": "Point",
        "coordinates": [
          16.9553114,
          45.3592228
        ]
      }
    },
    {
      "type": "Feature",
      "properties": {
        "name": "Brestova Draga"
      },
      "geometry": {
        "type": "Point",
        "coordinates": [
          14.7954251,
          45.3221258
        ]
      }
    },
    {
      "type": "Feature",
      "properties": {
        "name": "Brestovac"
      },
      "geometry": {
        "type": "Point",
        "coordinates": [
          17.5964474,
          45.3308748
        ]
      }
    },
    {
      "type": "Feature",
      "properties": {
        "name": "Brestovac Daruvarski"
      },
      "geometry": {
        "type": "Point",
        "coordinates": [
          17.1322483,
          45.6245885
        ]
      }
    },
    {
      "type": "Feature",
      "properties": {
        "name": "Brestovačka Brda"
      },
      "geometry": {
        "type": "Point",
        "coordinates": [
          17.1373502,
          45.6022113
        ]
      }
    },
    {
      "type": "Feature",
      "properties": {
        "name": "Brestovec Orehovički"
      },
      "geometry": {
        "type": "Point",
        "coordinates": [
          15.9851215,
          46.0795389
        ]
      }
    },
    {
      "type": "Feature",
      "properties": {
        "name": "Brešca"
      },
      "geometry": {
        "type": "Point",
        "coordinates": [
          14.2952779,
          45.4097425
        ]
      }
    },
    {
      "type": "Feature",
      "properties": {
        "name": "Breštane"
      },
      "geometry": {
        "type": "Point",
        "coordinates": [
          15.6394597,
          44.5623367
        ]
      }
    },
    {
      "type": "Feature",
      "properties": {
        "name": "Breštanovci"
      },
      "geometry": {
        "type": "Point",
        "coordinates": [
          17.9937045,
          45.6735888
        ]
      }
    },
    {
      "type": "Feature",
      "properties": {
        "name": "Breza"
      },
      "geometry": {
        "type": "Point",
        "coordinates": [
          18.2608208,
          44.0183108
        ]
      }
    },
    {
      "type": "Feature",
      "properties": {
        "name": "Breza"
      },
      "geometry": {
        "type": "Point",
        "coordinates": [
          14.3446579,
          45.4225333
        ]
      }
    },
    {
      "type": "Feature",
      "properties": {
        "name": "Brezari"
      },
      "geometry": {
        "type": "Point",
        "coordinates": [
          15.5796994,
          45.6862685
        ]
      }
    },
    {
      "type": "Feature",
      "properties": {
        "name": "Brezarić"
      },
      "geometry": {
        "type": "Point",
        "coordinates": [
          15.5247691,
          45.64605
        ]
      }
    },
    {
      "type": "Feature",
      "properties": {
        "name": "Breze"
      },
      "geometry": {
        "type": "Point",
        "coordinates": [
          14.8717554,
          45.1841788
        ]
      }
    },
    {
      "type": "Feature",
      "properties": {
        "name": "Brezik"
      },
      "geometry": {
        "type": "Point",
        "coordinates": [
          15.5116457,
          44.4340226
        ]
      }
    },
    {
      "type": "Feature",
      "properties": {
        "name": "Brezik"
      },
      "geometry": {
        "type": "Point",
        "coordinates": [
          17.407137,
          45.8637726
        ]
      }
    },
    {
      "type": "Feature",
      "properties": {
        "name": "Brezik"
      },
      "geometry": {
        "type": "Point",
        "coordinates": [
          17.8046197,
          45.671077
        ]
      }
    },
    {
      "type": "Feature",
      "properties": {
        "name": "Brezik Našički"
      },
      "geometry": {
        "type": "Point",
        "coordinates": [
          18.0645626,
          45.5115496
        ]
      }
    },
    {
      "type": "Feature",
      "properties": {
        "name": "Brezine"
      },
      "geometry": {
        "type": "Point",
        "coordinates": [
          16.670403,
          45.9152272
        ]
      }
    },
    {
      "type": "Feature",
      "properties": {
        "name": "Brezine"
      },
      "geometry": {
        "type": "Point",
        "coordinates": [
          17.0316983,
          45.4538442
        ]
      }
    },
    {
      "type": "Feature",
      "properties": {
        "name": "Brezje"
      },
      "geometry": {
        "type": "Point",
        "coordinates": [
          16.5270559,
          45.835664
        ]
      }
    },
    {
      "type": "Feature",
      "properties": {
        "name": "Brezje"
      },
      "geometry": {
        "type": "Point",
        "coordinates": [
          16.0077237,
          45.9732448
        ]
      }
    },
    {
      "type": "Feature",
      "properties": {
        "name": "Brezje"
      },
      "geometry": {
        "type": "Point",
        "coordinates": [
          15.7904611,
          45.7891047
        ]
      }
    },
    {
      "type": "Feature",
      "properties": {
        "name": "Brezje"
      },
      "geometry": {
        "type": "Point",
        "coordinates": [
          16.3990248,
          46.4113598
        ]
      }
    },
    {
      "type": "Feature",
      "properties": {
        "name": "Brezje Dobransko"
      },
      "geometry": {
        "type": "Point",
        "coordinates": [
          14.9353866,
          45.4374903
        ]
      }
    },
    {
      "type": "Feature",
      "properties": {
        "name": "Brezje Dravsko"
      },
      "geometry": {
        "type": "Point",
        "coordinates": [
          16.0949795,
          46.3748292
        ]
      }
    },
    {
      "type": "Feature",
      "properties": {
        "name": "Breznica Đakovačka"
      },
      "geometry": {
        "type": "Point",
        "coordinates": [
          18.164606,
          45.3295821
        ]
      }
    },
    {
      "type": "Feature",
      "properties": {
        "name": "Breznica Našička"
      },
      "geometry": {
        "type": "Point",
        "coordinates": [
          18.1976009,
          45.534246
        ]
      }
    },
    {
      "type": "Feature",
      "properties": {
        "name": "Breznički Hum"
      },
      "geometry": {
        "type": "Point",
        "coordinates": [
          16.2837825,
          46.1001796
        ]
      }
    },
    {
      "type": "Feature",
      "properties": {
        "name": "Breznik Plešivički"
      },
      "geometry": {
        "type": "Point",
        "coordinates": [
          15.6808194,
          45.6924206
        ]
      }
    },